[
  {
    "suburb": "Melbourne City",
    "transport_type": "train",
    "stop_id": 1068,
    "location_name": "Flagstaff Station",
    "lat": -37.8119774,
    "lon": 144.955658,
    "distance": 0.0
  },
  {
    "suburb": "Melbourne City",
    "transport_type": "train",
    "stop_id": 1071,
    "location_name": "Flinders Street Station",
    "lat": -37.81831,
    "lon": 144.966965,
    "distance": 0.0
  },
  {
    "suburb": "Footscray",
    "transport_type": "train",
    "stop_id": 1072,
    "location_name": "Footscray Station",
    "lat": -37.8010864,
    "lon": 144.9032,
    "distance": 0.0
  },
  {
    "suburb": "Melbourne City",
    "transport_type": "train",
    "stop_id": 1120,
    "location_name": "Melbourne Central Station",
    "lat": -37.8099365,
    "lon": 144.9626,
    "distance": 0.0
  },
  {
    "suburb": "Newport",
    "transport_type": "train",
    "stop_id": 1141,
    "location_name": "Newport Station",
    "lat": -37.8427124,
    "lon": 144.8836,
    "distance": 0.0
  },
  {
    "suburb": "West Melbourne",
    "transport_type": "train",
    "stop_id": 1144,
    "location_name": "North Melbourne Station",
    "lat": -37.80631,
    "lon": 144.941513,
    "distance": 0.0
  },
  {
    "suburb": "Williamstown",
    "transport_type": "train",
    "stop_id": 1146,
    "location_name": "North Williamstown Station",
    "lat": -37.85733,
    "lon": 144.889069,
    "distance": 0.0
  },
  {
    "suburb": "Melbourne City",
    "transport_type": "train",
    "stop_id": 1155,
    "location_name": "Parliament Station",
    "lat": -37.8110542,
    "lon": 144.9729,
    "distance": 0.0
  },
  {
    "suburb": "Seddon",
    "transport_type": "train",
    "stop_id": 1176,
    "location_name": "Seddon Station",
    "lat": -37.8090019,
    "lon": 144.89566,
    "distance": 0.0
  },
  {
    "suburb": "Kensington",
    "transport_type": "train",
    "stop_id": 1179,
    "location_name": "South Kensington Station",
    "lat": -37.7995338,
    "lon": 144.925476,
    "distance": 0.0
  },
  {
    "suburb": "Melbourne City",
    "transport_type": "train",
    "stop_id": 1181,
    "location_name": "Southern Cross Station",
    "lat": -37.8183327,
    "lon": 144.95253,
    "distance": 0.0
  },
  {
    "suburb": "Spotswood",
    "transport_type": "train",
    "stop_id": 1182,
    "location_name": "Spotswood Station",
    "lat": -37.8306351,
    "lon": 144.885941,
    "distance": 0.0
  },
  {
    "suburb": "Williamstown",
    "transport_type": "train",
    "stop_id": 1211,
    "location_name": "Williamstown Station",
    "lat": -37.8677559,
    "lon": 144.905319,
    "distance": 0.0
  },
  {
    "suburb": "Williamstown",
    "transport_type": "train",
    "stop_id": 1212,
    "location_name": "Williamstown Beach Station",
    "lat": -37.8639832,
    "lon": 144.894485,
    "distance": 0.0
  },
  {
    "suburb": "Yarraville",
    "transport_type": "train",
    "stop_id": 1216,
    "location_name": "Yarraville Station",
    "lat": -37.81585,
    "lon": 144.889938,
    "distance": 0.0
  }
]